[
  {
    "beach_name": "North Shore Natural Area",
    "status": "green",
    "date": "Aug 1 2025 2:43PM",
    "note": "Open",
    "coordinates": {
      "lat": 44.5222,
      "lon": -73.257
    }
  },
  {
    "beach_name": "Leddy Beach North",
    "status": "green",
    "date": "Aug 1 2025 1:40PM",
    "note": "Open",
    "coordinates": {
      "lat": 44.5055,
      "lon": -73.2505
    }
  },
  {
    "beach_name": "Leddy Beach South",
    "status": "green",
    "date": "Aug 1 2025 1:41PM",
    "note": "Open",
    "coordinates": {
      "lat": 44.5,
      "lon": -73.2488
    }
  },
  {
    "beach_name": "North Beach North",
    "status": "green",
    "date": "Aug 1 2025 12:12PM",
    "note": "Open",
    "coordinates": {
      "lat": 44.4925,
      "lon": -73.2435
    }
  },
  {
    "beach_name": "North Beach South",
    "status": "green",
    "date": "Aug 1 2025 12:12PM",
    "note": "Open",
    "coordinates": {
      "lat": 44.489,
      "lon": -73.241
    }
  },
  {
    "beach_name": "Texaco Beach",
    "status": "green",
    "date": "Aug 1 2025 12:12PM",
    "note": "Open",
    "coordinates": {
      "lat": 44.4845,
      "lon": -73.237
    }
  },
  {
    "beach_name": "Blanchard Beach North",
    "status": "red",
    "date": "Aug 1 2025 9:05AM",
    "note": "Closed E-Coli levels too high",
    "coordinates": {
      "lat": 44.479,
      "lon": -73.2325
    }
  },
  {
    "beach_name": "Blanchard Beach South",
    "status": "red",
    "date": "Aug 1 2025 9:06AM",
    "note": "Closed E-Coli levels too high",
    "coordinates": {
      "lat": 44.4765,
      "lon": -73.23
    }
  },
  {
    "beach_name": "Oakledge Cove",
    "status": "green",
    "date": "Aug 1 2025 8:48AM",
    "note": "Open",
    "coordinates": {
      "lat": 44.455,
      "lon": -73.2255
    }
  },
  {
    "beach_name": "Blodgett Water Access Point",
    "status": "yellow",
    "date": "Jul 31 2025 11:49AM",
    "note": "Alert Category 2 BGA level",
    "coordinates": {
      "lat": 44.45,
      "lon": -73.223
    }
  }
]