[
  {
    "beach_name": "North Shore Natural Area",
    "status": "green",
    "date": "Sep 2 2025 10:43AM",
    "note": "Open",
    "coordinates": {
      "lat": 44.5156642,
      "lon": -73.2691206
    }
  },
  {
    "beach_name": "Leddy Beach North",
    "status": "green",
    "date": "Sep 8 2025 11:44AM",
    "note": "Open",
    "coordinates": {
      "lat": 44.502334,
      "lon": -73.25506
    }
  },
  {
    "beach_name": "Leddy Beach South",
    "status": "green",
    "date": "Sep 8 2025 11:44AM",
    "note": "Open",
    "coordinates": {
      "lat": 44.501457,
      "lon": -73.252218
    }
  },
  {
    "beach_name": "North Beach North",
    "status": "green",
    "date": "Sep 8 2025 11:44AM",
    "note": "Open",
    "coordinates": {
      "lat": 44.492299,
      "lon": -73.241944
    }
  },
  {
    "beach_name": "North Beach South",
    "status": "green",
    "date": "Sep 8 2025 11:44AM",
    "note": "Open",
    "coordinates": {
      "lat": 44.491225,
      "lon": -73.237259
    }
  },
  {
    "beach_name": "Texaco Beach",
    "status": "green",
    "date": "Sep 8 2025 11:45AM",
    "note": "Open",
    "coordinates": {
      "lat": 44.48869,
      "lon": -73.231108
    }
  },
  {
    "beach_name": "Blanchard Beach North",
    "status": "green",
    "date": "Sep 8 2025 11:45AM",
    "note": "Open",
    "coordinates": {
      "lat": 44.457661,
      "lon": -73.224039
    }
  },
  {
    "beach_name": "Blanchard Beach South",
    "status": "green",
    "date": "Sep 8 2025 11:45AM",
    "note": "Open",
    "coordinates": {
      "lat": 44.45655,
      "lon": -73.225007
    }
  },
  {
    "beach_name": "Oakledge Cove",
    "status": "green",
    "date": "Sep 8 2025 11:45AM",
    "note": "Open",
    "coordinates": {
      "lat": 44.454203,
      "lon": -73.229385
    }
  },
  {
    "beach_name": "Blodgett Water Access Point",
    "status": "green",
    "date": "Sep 5 2025 11:50AM",
    "note": "Open",
    "coordinates": {
      "lat": 44.465701,
      "lon": -73.219072
    }
  }
]